{
  "ungdomsskoler": [
    {
      "id": "ungdomsskole-280558",
      "name": "10Plus",
      "address": "Gl Ringstedvej 32",
      "postalCode": "4300",
      "city": "Holbæk",
      "municipality": "Holbæk",
      "phone": "7236 5000",
      "email": "10klassecenter@holb.dk",
      "lat": 55.70712604,
      "lng": 11.71100903
    },
    {
      "id": "ungdomsskole-280472",
      "name": "Albertslund Ungecenter",
      "address": "Vognporten 1",
      "postalCode": "2620",
      "city": "Albertslund",
      "municipality": "Albertslund",
      "phone": "4364 2215",
      "email": "ane.marie.kristensen@albertslund.dk",
      "lat": 55.65602284,
      "lng": 12.35091088
    },
    {
      "id": "ungdomsskole-201210",
      "name": "Allerød Ungdomsskole",
      "address": "Rådhusvej 5",
      "postalCode": "3450",
      "city": "Allerød",
      "municipality": "Allerød",
      "phone": "4813 0339",
      "email": "alleroed.ungdomsskole@alleroed.dk",
      "lat": 55.86435699,
      "lng": 12.33762752
    },
    {
      "id": "ungdomsskole-420100",
      "name": "Assens Ungdomsskole",
      "address": "Møllebakken 31",
      "postalCode": "5560",
      "city": "Aarup",
      "municipality": "Assens",
      "phone": "6474 7960",
      "email": "Ungdomsskolen@assens.dk",
      "lat": 55.3744728,
      "lng": 10.04628137
    },
    {
      "id": "ungdomsskole-151210",
      "name": "Ballerup Ungdomsskole",
      "address": "Gl Rådhusvej 13",
      "postalCode": "2750",
      "city": "Ballerup",
      "municipality": "Ballerup",
      "phone": "4477 3700",
      "email": "busk@balk.dk",
      "lat": 55.73179946,
      "lng": 12.36486729
    },
    {
      "id": "ungdomsskole-551210",
      "name": "Billund Komm. Ungdomsskole",
      "address": "Tinghusgade 9B",
      "postalCode": "7200",
      "city": "Grindsted",
      "municipality": "Billund",
      "phone": "7213 1650",
      "email": "ung@billund.dk",
      "lat": 55.75200234,
      "lng": 8.92246465
    },
    {
      "id": "ungdomsskole-400212",
      "name": "Bornholms Ungdomsskole",
      "address": "Sct Klemensgade 26",
      "postalCode": "3782",
      "city": "Klemensker",
      "municipality": "Bornholm",
      "phone": "5692 3440",
      "email": "ungdomsskolen@brk.dk",
      "lat": 55.17568436,
      "lng": 14.8111042
    },
    {
      "id": "ungdomsskole-282217",
      "name": "Brahesholm",
      "address": "Bogensevej 133",
      "postalCode": "5620",
      "city": "Glamsbjerg",
      "municipality": "Assens",
      "phone": "3046 3834",
      "email": "assensung@assens.dk",
      "lat": 55.31802438,
      "lng": 10.04728189
    },
    {
      "id": "ungdomsskole-153210",
      "name": "Brøndby Kommunale Ungdomsskole",
      "address": "Horsedammen 42",
      "postalCode": "2605",
      "city": "Brøndby",
      "municipality": "Brøndby",
      "phone": "4328 2910",
      "email": "ungdomsskolen@brondby.dk",
      "lat": 55.66435898,
      "lng": 12.42986839
    },
    {
      "id": "ungdomsskole-209210",
      "name": "CampusU10, ungdomsskolen",
      "address": "Odinsvej 4D",
      "postalCode": "3600",
      "city": "Frederikssund",
      "municipality": "Frederikssund",
      "phone": "4735 2600",
      "email": "ungdomsskolen@frederikssund.dk",
      "lat": 55.84557256,
      "lng": 12.06320993
    },
    {
      "id": "ungdomsskole-155210",
      "name": "Dragør Ungdomsskole",
      "address": "Kirkevej 8",
      "postalCode": "2791",
      "city": "Dragør",
      "municipality": "Dragør",
      "phone": "2964 5208",
      "email": "ungdomsskolen@dragoer.dk",
      "lat": 55.59555497,
      "lng": 12.63723921
    },
    {
      "id": "ungdomsskole-561210",
      "name": "Esbjerg Ungdomsskole",
      "address": "Grønlandsparken 300",
      "postalCode": "6715",
      "city": "Esbjerg N",
      "municipality": "Esbjerg",
      "phone": "7616 6260",
      "email": "ungesbjerg@esbjerg.dk",
      "lat": 55.51550154,
      "lng": 8.44776281
    },
    {
      "id": "ungdomsskole-713211",
      "name": "Favrskov Ungdomsskole",
      "address": "Skovvej 12 B",
      "postalCode": "8382",
      "city": "Hinnerup",
      "municipality": "Favrskov",
      "phone": "8964 5860",
      "email": "ungdomsskolen@favrskov.dk",
      "lat": 56.2666507,
      "lng": 10.0612506
    },
    {
      "id": "ungdomsskole-313210",
      "name": "Faxe kommunale Ungdomsskole",
      "address": "Søndergade 12G",
      "postalCode": "4690",
      "city": "Haslev",
      "municipality": "Faxe",
      "phone": "5620 6200",
      "email": "ungdomsskolen@faxekommune.dk",
      "lat": 55.3248301,
      "lng": 11.95564782
    },
    {
      "id": "ungdomsskole-208210",
      "name": "Fredensborg  Ungdomsskole",
      "address": "Krogerupvej 21",
      "postalCode": "3050",
      "city": "Humlebæk",
      "municipality": "Fredensborg",
      "phone": "7256 5555",
      "email": "ung@fredensborg.dk",
      "lat": 55.97411759,
      "lng": 12.51886981
    },
    {
      "id": "ungdomsskole-147210",
      "name": "Frederiksberg Ungdomsskole",
      "address": "Sofus Francks Vænge 30",
      "postalCode": "2000",
      "city": "Frederiksberg",
      "municipality": "Frederiksberg",
      "phone": "3821 0530",
      "email": "ungdomsskolen@frederiksberg.dk",
      "lat": 55.67050949,
      "lng": 12.50318748
    },
    {
      "id": "ungdomsskole-813211",
      "name": "Frederikshavn Kommunale Ungdomsskole og 10. klassecenter",
      "address": "Tordenskjoldsgade 19",
      "postalCode": "9900",
      "city": "Frederikshavn",
      "municipality": "Frederikshavn",
      "phone": "9845 9272",
      "email": "peht@frederikshavn.dk",
      "lat": 57.43926729,
      "lng": 10.53946588
    },
    {
      "id": "ungdomsskole-280114",
      "name": "Fritids- og ungdomsskolen i Aarhus - NORD",
      "address": "Grøndalsvej 2",
      "postalCode": "8260",
      "city": "Viby J",
      "municipality": "Aarhus",
      "phone": "2920 9095",
      "email": "uiaa@mbu.aarhus.dk",
      "lat": 56.12399798,
      "lng": 10.15186313
    },
    {
      "id": "ungdomsskole-280146",
      "name": "Fritids- og ungdomsskolen i Aarhus - SYD",
      "address": "Grøndalsvej 2",
      "postalCode": "8260",
      "city": "Viby J",
      "municipality": "Aarhus",
      "phone": "2920 9940",
      "email": "uiaa@mbu.aarhus.dk",
      "lat": 56.12399798,
      "lng": 10.15186313
    },
    {
      "id": "ungdomsskole-281403",
      "name": "Fritids- og ungdomsskolen i Aarhus - SYDVEST",
      "address": "Grøndalsvej 2",
      "postalCode": "8260",
      "city": "Viby J",
      "municipality": "Aarhus",
      "phone": "4185 7100",
      "email": "uiaa@mbu.aarhus.dk",
      "lat": 56.12399798,
      "lng": 10.15186313
    },
    {
      "id": "ungdomsskole-280144",
      "name": "Fritids- og ungdomsskolen i Aarhus - Vest",
      "address": "Grøndalsvej 2",
      "postalCode": "8260",
      "city": "Viby J",
      "municipality": "Aarhus",
      "phone": "5157 5033",
      "email": "uiaa@mbu.aarhus.dk",
      "lat": 56.12399798,
      "lng": 10.15186313
    },
    {
      "id": "ungdomsskole-281404",
      "name": "Fritids- og ungdomsskolen i Aarhus - ØST",
      "address": "Grøndalsvej 2",
      "postalCode": "8260",
      "city": "Viby J",
      "municipality": "Aarhus",
      "phone": "5157 5757",
      "email": "uiaa@mbu.aarhus.dk",
      "lat": 56.12399798,
      "lng": 10.15186313
    },
    {
      "id": "ungdomsskole-189210",
      "name": "Furesø Ungdomsskole",
      "address": "Paltholmterrasserne 1",
      "postalCode": "3520",
      "city": "Farum",
      "municipality": "Furesø",
      "phone": "7235 7600",
      "email": "ungdomsskole@furesoe.dk",
      "lat": 55.81649436,
      "lng": 12.3779737
    },
    {
      "id": "ungdomsskole-430210",
      "name": "Faaborg-Midtfyn Ungdomsskole",
      "address": "Grønnegade 40",
      "postalCode": "5600",
      "city": "Faaborg",
      "municipality": "Faaborg-Midtfyn",
      "phone": "7253 8300",
      "email": "fmus@faaborgmidtfyn.dk",
      "lat": 55.09558908,
      "lng": 10.24475615
    },
    {
      "id": "ungdomsskole-157210",
      "name": "Gentofte Kommunes Ungdomsskole",
      "address": "Bregnegårdsvej 21 B",
      "postalCode": "2900",
      "city": "Hellerup",
      "municipality": "Gentofte",
      "phone": "3998 5400",
      "email": "ungdomsskolen@gentofte.dk",
      "lat": 55.74287872,
      "lng": 12.56756023
    },
    {
      "id": "ungdomsskole-161210",
      "name": "Glostrup Ungdomsskole",
      "address": "Florasvej 2",
      "postalCode": "2600",
      "city": "Glostrup",
      "municipality": "Glostrup",
      "phone": "3053 2600",
      "email": "ung2600@glostrup.dk",
      "lat": 55.66587768,
      "lng": 12.40755451
    },
    {
      "id": "ungdomsskole-253210",
      "name": "Greve Ungdomsskole",
      "address": "Gersager Allé 1",
      "postalCode": "2670",
      "city": "Greve",
      "municipality": "Greve",
      "phone": "4397 3520",
      "email": "grevekulturbase@greve.dk",
      "lat": 55.59467342,
      "lng": 12.33335319
    },
    {
      "id": "ungdomsskole-281948",
      "name": "Gribskov Ungdomsskole",
      "address": "Kanutskivej 5",
      "postalCode": "3200",
      "city": "Helsinge",
      "municipality": "Gribskov",
      "phone": "7249 9999",
      "email": "ungdomscenter@gribskov.dk",
      "lat": 56.01622838,
      "lng": 12.15570962
    },
    {
      "id": "ungdomsskole-369210",
      "name": "Guldborgsund Ungdomsskole",
      "address": "Thorsensvej 11A, 2.",
      "postalCode": "4800",
      "city": "Nykøbing F",
      "municipality": "Guldborgsund",
      "phone": "5473 1422",
      "email": "ungdomsskolen@guldborgsund.dk",
      "lat": 54.77330924,
      "lng": 11.86971073
    },
    {
      "id": "ungdomsskole-159210",
      "name": "GXU, Gladsaxe 10. Klasse og Ungdomsskole, ungdomsskoleafdelingen",
      "address": "Gladsaxevej 198",
      "postalCode": "2860",
      "city": "Søborg",
      "municipality": "Gladsaxe",
      "phone": "3957 6150",
      "email": "gxu@gladsaxe.dk",
      "lat": 55.73108765,
      "lng": 12.49994752
    },
    {
      "id": "ungdomsskole-515210",
      "name": "Haderslev Ungdomsskole",
      "address": "Christiansfeldvej 8a",
      "postalCode": "6100",
      "city": "Haderslev",
      "municipality": "Haderslev",
      "phone": "7434 7950",
      "email": "ungdomsskolen@haderslev.dk",
      "lat": 55.25594347,
      "lng": 9.49227898
    },
    {
      "id": "ungdomsskole-211210",
      "name": "Halsnæs Ungdomsskole",
      "address": "Rådhuspladsen 1",
      "postalCode": "3300",
      "city": "Frederiksværk",
      "municipality": "Halsnæs",
      "phone": "4778 4800",
      "email": "ungdomsskolen@halsnaes.dk",
      "lat": 55.97657023,
      "lng": 12.01612365
    },
    {
      "id": "ungdomsskole-281586",
      "name": "Helsingung",
      "address": "Gl Banegårdsvej 29",
      "postalCode": "3000",
      "city": "Helsingør",
      "municipality": "Helsingør",
      "phone": "2531 3593",
      "email": "fli43@helsingor.dk",
      "lat": 56.03189719,
      "lng": 12.60378388
    },
    {
      "id": "ungdomsskole-217210",
      "name": "Helsingør Kommunale Ungdomsskole",
      "address": "Rasmus Knudsens Vej 52",
      "postalCode": "3000",
      "city": "Helsingør",
      "municipality": "Helsingør",
      "phone": "4928 1130",
      "email": "us@helsingor.dk",
      "lat": 56.04488726,
      "lng": 12.57971084
    },
    {
      "id": "ungdomsskole-163211",
      "name": "Herlev Kommunes Ungdomsskole",
      "address": "Højsletten 25",
      "postalCode": "2730",
      "city": "Herlev",
      "municipality": "Herlev",
      "phone": "4452 5810",
      "email": "ung@herlev.dk",
      "lat": 55.73099268,
      "lng": 12.41764306
    },
    {
      "id": "ungdomsskole-219210",
      "name": "Hillerød Ungdomsskole",
      "address": "Ndr. Jernbanevej 6",
      "postalCode": "3400",
      "city": "Hillerød",
      "municipality": "Hillerød",
      "phone": "7232 5750",
      "email": "kamo@hillerod.dk",
      "lat": 55.93059518,
      "lng": 12.30738796
    },
    {
      "id": "ungdomsskole-821210",
      "name": "Hjørring Ungdomsskole",
      "address": "Norgesvej 6",
      "postalCode": "9800",
      "city": "Hjørring",
      "municipality": "Hjørring",
      "phone": "7233 4360",
      "email": "godthaab@hjoerring.dk",
      "lat": 57.46365042,
      "lng": 9.99351113
    },
    {
      "id": "ungdomsskole-315210",
      "name": "Holbæk Ungdomsskole",
      "address": "Gl. Ringstedvej 32",
      "postalCode": "4300",
      "city": "Holbæk",
      "municipality": "Holbæk",
      "phone": "7236 4000",
      "email": "ungdom@holb.dk",
      "lat": 55.70712604,
      "lng": 11.71100903
    },
    {
      "id": "ungdomsskole-661210",
      "name": "Holstebro Kommunale Ungdomsskole",
      "address": "Døesvej 54C",
      "postalCode": "7500",
      "city": "Holstebro",
      "municipality": "Holstebro",
      "phone": "9611 6750",
      "email": "hku@holstebro.dk",
      "lat": 56.36991724,
      "lng": 8.60808591
    },
    {
      "id": "ungdomsskole-281421",
      "name": "Holstebro Kommunale Ungdomsskole og AKT-tilbud",
      "address": "Døesvej 54C",
      "postalCode": "7500",
      "city": "Holstebro",
      "municipality": "Holstebro",
      "phone": "9611 6750",
      "email": "ung@holstebro.dk",
      "lat": 56.36991724,
      "lng": 8.60808591
    },
    {
      "id": "ungdomsskole-615210",
      "name": "Horsens Ungdomsskole",
      "address": "Falstersgade 24",
      "postalCode": "8700",
      "city": "Horsens",
      "municipality": "Horsens",
      "phone": "7629 1530",
      "email": "ungdomsskolen@horsens.dk",
      "lat": 55.85671821,
      "lng": 9.84254145
    },
    {
      "id": "ungdomsskole-167210",
      "name": "Hvidovre Ungdomsskole",
      "address": "Bødkerporten 1B, 1. tv",
      "postalCode": "2650",
      "city": "Hvidovre",
      "municipality": "Hvidovre",
      "phone": "3647 2650",
      "email": "ungdomsskolen@hvidovre.dk",
      "lat": 55.62773214,
      "lng": 12.45111375
    },
    {
      "id": "ungdomsskole-223210",
      "name": "Hørsholm Ungdomsskole",
      "address": "Stadion Allé 12",
      "postalCode": "2960",
      "city": "Rungsted Kyst",
      "municipality": "Hørsholm",
      "phone": "4051 4663",
      "email": "ungdomsskolen@horsholm.dk",
      "lat": 55.89483272,
      "lng": 12.51832428
    },
    {
      "id": "ungdomsskole-663210",
      "name": "Ikast-Brande kommunale Ungdomsskole",
      "address": "Kongevejen 61",
      "postalCode": "7430",
      "city": "Ikast",
      "municipality": "Ikast-Brande",
      "phone": "9960 4880",
      "email": "ikast.brande@usk.dk",
      "lat": 56.13685119,
      "lng": 9.14763878
    },
    {
      "id": "ungdomsskole-183212",
      "name": "Ishøj Ungdomsskole",
      "address": "Vejledalen 7",
      "postalCode": "2635",
      "city": "Ishøj",
      "municipality": "Ishøj",
      "phone": "4357 6000",
      "email": "brlar@ishoj.dk",
      "lat": 55.61660543,
      "lng": 12.36774358
    },
    {
      "id": "ungdomsskole-849211",
      "name": "Jammerbugt Ungdomsskole",
      "address": "Skolegade 3",
      "postalCode": "9460",
      "city": "Brovst",
      "municipality": "Jammerbugt",
      "phone": "7257 8230",
      "email": "ungjam@jammerbugt.dk",
      "lat": 57.11179029,
      "lng": 9.58662472
    },
    {
      "id": "ungdomsskole-323210",
      "name": "Kalundborg Ungdomsskole",
      "address": "Skovbrynet 51",
      "postalCode": "4400",
      "city": "Kalundborg",
      "municipality": "Kalundborg",
      "phone": "5953 4698",
      "email": "ungdomsskolen@kalundborg.dk",
      "lat": 55.69021935,
      "lng": 11.08414298
    },
    {
      "id": "ungdomsskole-280775",
      "name": "Kerteminde Kommunale Ungdomsskole",
      "address": "Regnar Langesvej 1",
      "postalCode": "5300",
      "city": "Kerteminde",
      "municipality": "Kerteminde",
      "phone": "6515 1770",
      "email": "ungdomsskolen@kerteminde.dk",
      "lat": 55.4550051,
      "lng": 10.63761809
    },
    {
      "id": "ungdomsskole-439210",
      "name": "Kerteminde Kommunale Ungdomsskole, ungdomsskole afd.",
      "address": "Regnar Langesvej 1",
      "postalCode": "5300",
      "city": "Kerteminde",
      "municipality": "Kerteminde",
      "phone": "6515 1770",
      "email": "ungdomsskolen@kerteminde.dk",
      "lat": 55.4550051,
      "lng": 10.63761809
    },
    {
      "id": "ungdomsskole-281876",
      "name": "Kulturskolen Ringkøbing-Skjern",
      "address": "Ranunkelvej 11",
      "postalCode": "6900",
      "city": "Skjern",
      "municipality": "Ringkøbing-Skjern",
      "phone": "9974 2555",
      "email": "kulturskolen@rksk.dk",
      "lat": 55.95408482,
      "lng": 8.5030376
    },
    {
      "id": "ungdomsskole-101212",
      "name": "Københavns Kommunes Ungdomsskole Fritids- og almenundervisningen",
      "address": "Ny Carlsberg Vej 35",
      "postalCode": "1760",
      "city": "København V",
      "municipality": "København",
      "phone": "3321 4818",
      "email": "almen.ungdomsskolen@kk.dk",
      "lat": 55.66602621,
      "lng": 12.54084154
    },
    {
      "id": "ungdomsskole-280487",
      "name": "Københavns Kommunes Ungdomsskole Nye Veje",
      "address": "Gammel Kalkbrænderi Vej 13",
      "postalCode": "2100",
      "city": "København Ø",
      "municipality": "København",
      "phone": "2764 4818",
      "email": "Y38S@kk.dk",
      "lat": 55.70419247,
      "lng": 12.58367594
    },
    {
      "id": "ungdomsskole-101213",
      "name": "Københavns Kommunes Ungdomsskole Prøveforberedende tilbud",
      "address": "Hovmestervej 30",
      "postalCode": "2400",
      "city": "København NV",
      "municipality": "København",
      "phone": "2124 7907",
      "email": "y38s@kk.dk",
      "lat": 55.7103599,
      "lng": 12.53136787
    },
    {
      "id": "ungdomsskole-101214",
      "name": "Københavns Kommunes Ungdomsskole, Byhøjskolen",
      "address": "Kapelvej 44",
      "postalCode": "2200",
      "city": "København N",
      "municipality": "København",
      "phone": "3530 4818",
      "email": "byhoejskolen.ungdomsskolen@kk.dk",
      "lat": 55.68654583,
      "lng": 12.5513027
    },
    {
      "id": "ungdomsskole-101217",
      "name": "Københavns Kommunes Ungdomsskole, Ungdomsskolen i Hindegade",
      "address": "Hindegade 4",
      "postalCode": "1303",
      "city": "København K",
      "municipality": "København",
      "phone": "2119 5536",
      "email": "skoleadm_ungdomsskolen@kk.dk",
      "lat": 55.68610617,
      "lng": 12.58826056
    },
    {
      "id": "ungdomsskole-259210",
      "name": "Køge Ungdomsskole",
      "address": "Søndre Badevej 1",
      "postalCode": "4600",
      "city": "Køge",
      "municipality": "Køge",
      "phone": "5656 5690",
      "email": "ungdomsskolen@koege.dk",
      "lat": 55.45119562,
      "lng": 12.19082171
    },
    {
      "id": "ungdomsskole-482210",
      "name": "Langeland Kommunale Ungdomsskole",
      "address": "H.C. Ørstedsvej 10",
      "postalCode": "5900",
      "city": "Rudkøbing",
      "municipality": "Langeland",
      "phone": "6351 6465",
      "email": "ungdomsskolen@langelandkommune.dk",
      "lat": 54.93154643,
      "lng": 10.73240771
    },
    {
      "id": "ungdomsskole-261210",
      "name": "Lejre Ungdomsskole",
      "address": "Sandbechs Alle 1A",
      "postalCode": "4330",
      "city": "Hvalsø",
      "municipality": "Lejre",
      "phone": "4640 4804",
      "email": "ungdomsskolen@lejre.dk",
      "lat": 55.59346016,
      "lng": 11.85571772
    },
    {
      "id": "ungdomsskole-665210",
      "name": "Lemvig Ungdomsskole",
      "address": "Østergade 50",
      "postalCode": "7620",
      "city": "Lemvig",
      "municipality": "Lemvig",
      "phone": "9663 1368",
      "email": "unglemvig@lemvig.dk",
      "lat": 56.5504561,
      "lng": 8.31822268
    },
    {
      "id": "ungdomsskole-360210",
      "name": "Lolland Ungdomsskole",
      "address": "Gyvelvej 3",
      "postalCode": "4900",
      "city": "Nakskov",
      "municipality": "Lolland",
      "phone": "5467 7166",
      "email": "ungdomsskolen@lolland.dk",
      "lat": 54.83594563,
      "lng": 11.14107638
    },
    {
      "id": "ungdomsskole-173210",
      "name": "Lyngby-Tårbæk Ungdomsskole",
      "address": "Jernbanepladsen 22",
      "postalCode": "2800",
      "city": "Kgs. Lyngby",
      "municipality": "Lyngby-Taarbæk",
      "phone": "4528 4480",
      "email": "ungdomsskolen@ltk.dk",
      "lat": 55.76917668,
      "lng": 12.50218827
    },
    {
      "id": "ungdomsskole-825210",
      "name": "Læsø Ungdomsskole",
      "address": "Byrum Hovedgade 58",
      "postalCode": "9940",
      "city": "Læsø",
      "municipality": "Læsø",
      "phone": "9849 1566",
      "email": "ungdomsskolen@laesoe.dk",
      "lat": 57.25374205,
      "lng": 11.00241107
    },
    {
      "id": "ungdomsskole-801213",
      "name": "Mariagerfjord Ungdomsskole",
      "address": "Christiansgade 10",
      "postalCode": "9500",
      "city": "Hobro",
      "municipality": "Mariagerfjord",
      "phone": "9711 4346",
      "email": "ungdomsskolen@mariagerfjord.dk",
      "lat": 56.63536452,
      "lng": 9.79592787
    },
    {
      "id": "ungdomsskole-445210",
      "name": "Middelfart Ungdomsskole",
      "address": "Blindebomsvej 11",
      "postalCode": "5500",
      "city": "Middelfart",
      "municipality": "Middelfart",
      "phone": "8888 5690",
      "email": "ungdomsskolen@middelfart.dk",
      "lat": 55.50342623,
      "lng": 9.73029792
    },
    {
      "id": "ungdomsskole-773210",
      "name": "Morsø Kommunale Ungdomsskole",
      "address": "Spurvevej 2",
      "postalCode": "7900",
      "city": "Nykøbing M",
      "municipality": "Morsø",
      "phone": "9970 6280",
      "email": "ung@morsoe.dk",
      "lat": 56.7820607,
      "lng": 8.84014469
    },
    {
      "id": "ungdomsskole-751221",
      "name": "Netværksskolen, Heltidsundervisningen Aarhus",
      "address": "Randersvej 302",
      "postalCode": "8200",
      "city": "Aarhus N",
      "municipality": "Aarhus",
      "phone": "5157 6445",
      "email": "Heltidsundervisningen@mbu.aarhus.dk",
      "lat": 56.21326333,
      "lng": 10.17194771
    },
    {
      "id": "ungdomsskole-471210",
      "name": "Nordfyns Ungdomsskole",
      "address": "Højagervej 25",
      "postalCode": "5471",
      "city": "Søndersø",
      "municipality": "Nordfyns",
      "phone": "6482 8425",
      "email": "ungdomsskolen@nordfynskommune.dk",
      "lat": 55.49004133,
      "lng": 10.24287393
    },
    {
      "id": "ungdomsskole-449210",
      "name": "Nyborg  Ungdomsskole",
      "address": "Hyrdegyden 4",
      "postalCode": "5800",
      "city": "Nyborg",
      "municipality": "Nyborg",
      "phone": "6333 7051",
      "email": "ungdomsskolen@nyborg.dk",
      "lat": 55.31961301,
      "lng": 10.78979037
    },
    {
      "id": "ungdomsskole-373211",
      "name": "Næstved Kommunale Ungdomsskole",
      "address": "Ungdommens Hus, Skellet 29",
      "postalCode": "4700",
      "city": "Næstved",
      "municipality": "Næstved",
      "phone": "5588 4930",
      "email": "naestvedungdomsskole@naestved.dk",
      "lat": 55.22634207,
      "lng": 11.75094689
    },
    {
      "id": "ungdomsskole-727211",
      "name": "Odder Ungdomsskole",
      "address": "Nølevvej 2",
      "postalCode": "8300",
      "city": "Odder",
      "municipality": "Odder",
      "phone": "8780 3545",
      "email": "ungdomsskolen@odder.dk",
      "lat": 55.97809829,
      "lng": 10.16191981
    },
    {
      "id": "ungdomsskole-305210",
      "name": "Odsherred Ungdomsskole",
      "address": "Vesterlyngvej 8 Herrestrup",
      "postalCode": "4500",
      "city": "Nykøbing Sj",
      "municipality": "Odsherred",
      "phone": "5966 6490",
      "email": "ungi@odsherred.dk",
      "lat": 55.92717893,
      "lng": 11.66255302
    },
    {
      "id": "ungdomsskole-731211",
      "name": "Randers Ungdomsskole",
      "address": "Dronningborg Alle 1",
      "postalCode": "8930",
      "city": "Randers NØ",
      "municipality": "Randers",
      "phone": "8915 4600",
      "email": "ungdomsskolen@randers.dk",
      "lat": 56.47640661,
      "lng": 10.07469474
    },
    {
      "id": "ungdomsskole-843210",
      "name": "Rebild Ungdomsskole",
      "address": "Grangårdsvej 13C",
      "postalCode": "9530",
      "city": "Støvring",
      "municipality": "Rebild",
      "phone": "9988 8360",
      "email": "ungdomsskolen@rebild.dk",
      "lat": 56.88748821,
      "lng": 9.83511293
    },
    {
      "id": "ungdomsskole-681210",
      "name": "Ringkøbing-Skjern Ungdomsskole",
      "address": "Ladegårdsvej 5",
      "postalCode": "6920",
      "city": "Videbæk",
      "municipality": "Ringkøbing-Skjern",
      "phone": "9974 1820",
      "email": "ungdomsskolen@rksk.dk",
      "lat": 56.0936131,
      "lng": 8.56372439
    },
    {
      "id": "ungdomsskole-329210",
      "name": "Ringsted Komm. Ungdomsskole",
      "address": "Korsevænget 14",
      "postalCode": "4100",
      "city": "Ringsted",
      "municipality": "Ringsted",
      "phone": "5762 7650",
      "email": "ungdomsskolen@ringsted.dk",
      "lat": 55.4393921,
      "lng": 11.77999332
    },
    {
      "id": "ungdomsskole-255210",
      "name": "Roskilde Ungdomsskole, afd. nord",
      "address": "Planetvej 30",
      "postalCode": "4040",
      "city": "Jyllinge",
      "municipality": "Roskilde",
      "phone": "4631 8330",
      "email": "rusknord@roskilde.dk",
      "lat": 55.75157212,
      "lng": 12.10799357
    },
    {
      "id": "ungdomsskole-265210",
      "name": "Roskilde Ungdomsskole, Roskilde afdeling",
      "address": "Kongebakken 19A",
      "postalCode": "4000",
      "city": "Roskilde",
      "municipality": "Roskilde",
      "phone": "4631 4460",
      "email": "Ruskmidt@roskilde.dk",
      "lat": 55.6496622,
      "lng": 12.09231801
    },
    {
      "id": "ungdomsskole-741210",
      "name": "Samsø Ungdomsskole",
      "address": "Marsk Stigs Vej 5",
      "postalCode": "8305",
      "city": "Samsø",
      "municipality": "Samsø",
      "phone": "2545 4114",
      "email": "aujqh@samsoe.dk",
      "lat": 55.83347859,
      "lng": 10.58493405
    },
    {
      "id": "ungdomsskole-743211",
      "name": "Silkeborg Ungdomsskole",
      "address": "Oslovej 2",
      "postalCode": "8600",
      "city": "Silkeborg",
      "municipality": "Silkeborg",
      "phone": "8970 2800",
      "email": "ungdoms.skole@silkeborg.dk",
      "lat": 56.18198026,
      "lng": 9.59155751
    },
    {
      "id": "ungdomsskole-746211",
      "name": "Skanderborg Ungdomsskole",
      "address": "Højvangen 6",
      "postalCode": "8660",
      "city": "Skanderborg",
      "municipality": "Skanderborg",
      "phone": "8794 8794",
      "email": "ungdomsskolen@skanderborg.dk",
      "lat": 56.04771286,
      "lng": 9.94558422
    },
    {
      "id": "ungdomsskole-389210",
      "name": "Stevns Ungdomsskole",
      "address": "Skørpinge Mark 7",
      "postalCode": "4673",
      "city": "Rødvig Stevns",
      "municipality": "Stevns",
      "phone": "5116 8167",
      "email": "chaols@stevns.dk",
      "lat": 55.25747274,
      "lng": 12.37122131
    },
    {
      "id": "ungdomsskole-671210",
      "name": "Struer Kommunale Ungdomsskole",
      "address": "Park Alle 2",
      "postalCode": "7600",
      "city": "Struer",
      "municipality": "Struer",
      "phone": "9684 8600",
      "email": "ungdomsskolen@struer.dk",
      "lat": 56.48803677,
      "lng": 8.57517595
    },
    {
      "id": "ungdomsskole-479210",
      "name": "Svendborg Komm. Ungdomsskole",
      "address": "Abildvej 2",
      "postalCode": "5700",
      "city": "Svendborg",
      "municipality": "Svendborg",
      "phone": "6223 3070",
      "email": "ungdomsskolen@svendborg.dk",
      "lat": 55.06045682,
      "lng": 10.62432232
    },
    {
      "id": "ungdomsskole-706210",
      "name": "Syddjurs Ungdomsskole",
      "address": "Maarupvej 3",
      "postalCode": "8560",
      "city": "Kolind",
      "municipality": "Syddjurs",
      "phone": "8753 6035",
      "email": "ung@syddjurs.dk",
      "lat": 56.36107245,
      "lng": 10.59389487
    },
    {
      "id": "ungdomsskole-281218",
      "name": "Sønderborg Ungdomsskole",
      "address": "Ørstedsgade 53",
      "postalCode": "6400",
      "city": "Sønderborg",
      "municipality": "Sønderborg",
      "phone": "8872 4432",
      "email": "ungdomsskolen@sonderborg.dk",
      "lat": 54.90683876,
      "lng": 9.80542101
    },
    {
      "id": "ungdomsskole-280432",
      "name": "Tønder Ungdomsskole",
      "address": "Ribelandevej 62 Abild",
      "postalCode": "6270",
      "city": "Tønder",
      "municipality": "Tønder",
      "phone": "7492 8330",
      "email": "ungtoender@toender.dk",
      "lat": 54.97852446,
      "lng": 8.8629117
    },
    {
      "id": "ungdomsskole-541210",
      "name": "Tønder Ungdomsskole, ungdomsskolen",
      "address": "Ribelandevej 62 Abild",
      "postalCode": "6270",
      "city": "Tønder",
      "municipality": "Tønder",
      "phone": "7492 8330",
      "email": "ungtoender@toender.dk",
      "lat": 54.97852446,
      "lng": 8.8629117
    },
    {
      "id": "ungdomsskole-185210",
      "name": "Tårnby Ungdomsskole",
      "address": "Løjtegårdsvej 167",
      "postalCode": "2770",
      "city": "Kastrup",
      "municipality": "Tårnby",
      "phone": "3250 1751",
      "email": "us.uk@taarnby.dk",
      "lat": 55.62288859,
      "lng": 12.60273833
    },
    {
      "id": "ungdomsskole-181210",
      "name": "Ung i Rudersdal",
      "address": "Øverødvej 246B, 1.",
      "postalCode": "2840",
      "city": "Holte",
      "municipality": "Rudersdal",
      "phone": "4611 5900",
      "email": "ungi@rudersdal.dk",
      "lat": 55.83136425,
      "lng": 12.52093834
    },
    {
      "id": "ungdomsskole-335210",
      "name": "Ung Sorø",
      "address": "Rustkammervej 76",
      "postalCode": "4180",
      "city": "Sorø",
      "municipality": "Sorø",
      "phone": "5787 6830",
      "email": "ung@soroe.dk",
      "lat": 55.4622782,
      "lng": 11.55303539
    },
    {
      "id": "ungdomsskole-607211",
      "name": "Ungdomsskolen",
      "address": "Mosegårdsvej 2D",
      "postalCode": "7000",
      "city": "Fredericia",
      "municipality": "Fredericia",
      "phone": "7210 5690",
      "email": "ungfredericia@fredericia.dk",
      "lat": 55.53778128,
      "lng": 9.71957022
    },
    {
      "id": "ungdomsskole-282143",
      "name": "Ungdomsskolen - Bygaden",
      "address": "Erritsø Bygade 15",
      "postalCode": "7000",
      "city": "Fredericia",
      "municipality": "Fredericia",
      "phone": "6192 7755",
      "email": "rasmus.andersen@fredericia.dk",
      "lat": 55.54839284,
      "lng": 9.70263493
    },
    {
      "id": "ungdomsskole-169210",
      "name": "Ungdomsskolen - Heltid",
      "address": "Taastrupgårdsvej 12",
      "postalCode": "2630",
      "city": "Taastrup",
      "municipality": "Høje-Taastrup",
      "phone": "4335 2810",
      "email": "t-ungdomsskole@htk.dk",
      "lat": 55.6558933,
      "lng": 12.29444566
    },
    {
      "id": "ungdomsskole-810004",
      "name": "Ungdomsskolen Brønderslev",
      "address": "Nordens Alle 1",
      "postalCode": "9700",
      "city": "Brønderslev",
      "municipality": "Brønderslev",
      "phone": "9945 4730",
      "email": "ungdomsskolen@usbd.dk",
      "lat": 57.27546979,
      "lng": 9.94049031
    },
    {
      "id": "ungdomsskole-613210",
      "name": "Ungdomsskolen Hedensted",
      "address": "Stjernegårdsvej 20",
      "postalCode": "8722",
      "city": "Hedensted",
      "municipality": "Hedensted",
      "phone": "7975 5545",
      "email": "ungdomsskolen@hedensted.dk",
      "lat": 55.78305398,
      "lng": 9.69414315
    },
    {
      "id": "ungdomsskole-621211",
      "name": "Ungdomsskolen Kolding",
      "address": "C. F. Tietgensvej 7 C",
      "postalCode": "6000",
      "city": "Kolding",
      "municipality": "Kolding",
      "phone": "7979 7070",
      "email": "ung@kolding.dk",
      "lat": 55.50804731,
      "lng": 9.46321467
    },
    {
      "id": "ungdomsskole-101218",
      "name": "Ungdomsskolen på Hovmestervej",
      "address": "Hovmestervej 30",
      "postalCode": "2400",
      "city": "København NV",
      "municipality": "København",
      "phone": "3887 8309",
      "email": "skoleadm_ungdomsskolen@kk.dk",
      "lat": 55.7103599,
      "lng": 12.53136787
    },
    {
      "id": "ungdomsskole-787214",
      "name": "Ungdomsskolen Thisted",
      "address": "Skolegade 8 B",
      "postalCode": "7700",
      "city": "Thisted",
      "municipality": "Thisted",
      "phone": "9917 2092",
      "email": "ungdomsskolen@thisted.dk",
      "lat": 56.953531,
      "lng": 8.68416292
    },
    {
      "id": "ungdomsskole-400008",
      "name": "Ungdomsskolens Heltidsundervisning",
      "address": "Sct Klemensgade 26",
      "postalCode": "3782",
      "city": "Klemensker",
      "municipality": "Bornholm",
      "phone": "5692 3440",
      "email": "heltidsundervisning@brk.dk",
      "lat": 55.17568436,
      "lng": 14.8111042
    },
    {
      "id": "ungdomsskole-779210",
      "name": "Ungdomsskolen-Skive",
      "address": "Tambohus, Frederiksdal Allé 7",
      "postalCode": "7800",
      "city": "Skive",
      "municipality": "Skive",
      "phone": "9915 3280",
      "email": "tams@skivekommune.dk",
      "lat": 56.56575845,
      "lng": 9.01904317
    },
    {
      "id": "ungdomsskole-175210",
      "name": "Ungecenter2610",
      "address": "Milestedet, Nørrekær 8",
      "postalCode": "2610",
      "city": "Rødovre",
      "municipality": "Rødovre",
      "phone": "3637 8520",
      "email": "ungecenter2610@rk.dk",
      "lat": 55.66992288,
      "lng": 12.45080711
    },
    {
      "id": "ungdomsskole-657210",
      "name": "UngHerning",
      "address": "Gl. Skolevej 76",
      "postalCode": "7400",
      "city": "Herning",
      "municipality": "Herning",
      "phone": "9628 7654",
      "email": "ung@herning.dk",
      "lat": 56.13771992,
      "lng": 8.95226503
    },
    {
      "id": "ungdomsskole-281950",
      "name": "UngiAarhus Mellemformer",
      "address": "Grøndalsvej 2",
      "postalCode": "8260",
      "city": "Viby J",
      "municipality": "Aarhus",
      "phone": "4185 7100",
      "email": "uiaa@mbu.aarhus.dk",
      "lat": 56.12399798,
      "lng": 10.15186313
    },
    {
      "id": "ungdomsskole-707211",
      "name": "Ungnorddjurs",
      "address": "Åboulevarden 62A",
      "postalCode": "8500",
      "city": "Grenaa",
      "municipality": "Norddjurs",
      "phone": "8959 2550",
      "email": "ung@ungnorddjurs.dk",
      "lat": 56.40961154,
      "lng": 10.89380776
    },
    {
      "id": "ungdomsskole-461211",
      "name": "UngOdense",
      "address": "Niels Bohrs Allé 210",
      "postalCode": "5220",
      "city": "Odense SØ",
      "municipality": "Odense",
      "phone": "6375 7777",
      "email": "ungodense@odense.dk",
      "lat": 55.37654258,
      "lng": 10.45632524
    },
    {
      "id": "ungdomsskole-333210",
      "name": "UngSlagelse",
      "address": "Sct. Pedersgade 18, 2. sal",
      "postalCode": "4200",
      "city": "Slagelse",
      "municipality": "Slagelse",
      "phone": "5153 0404",
      "email": "angn@slagelse.dk",
      "lat": 55.40396862,
      "lng": 11.3448198
    },
    {
      "id": "ungdomsskole-269210",
      "name": "UngSolrød",
      "address": "Højagervænget 23",
      "postalCode": "2680",
      "city": "Solrød Strand",
      "municipality": "Solrød",
      "phone": "5618 2540",
      "email": "ung@solrod.dk",
      "lat": 55.53674676,
      "lng": 12.20523003
    },
    {
      "id": "ungdomsskole-851221",
      "name": "UngAalborg Uddannelsescenter",
      "address": "Enggaardsgade 65",
      "postalCode": "9000",
      "city": "Aalborg",
      "municipality": "Aalborg",
      "phone": "9352 0960",
      "email": "ungauc@aalborg.dk",
      "lat": 57.0255675,
      "lng": 9.91605593
    },
    {
      "id": "ungdomsskole-187210",
      "name": "Vallensbæk Ungdomsskole",
      "address": "Lundbækvej 5",
      "postalCode": "2665",
      "city": "Vallensbæk Strand",
      "municipality": "Vallensbæk",
      "phone": "4354 0055",
      "email": "usk@vallensbaek.dk",
      "lat": 55.62728824,
      "lng": 12.36891137
    },
    {
      "id": "ungdomsskole-573210",
      "name": "Varde Kommunale Ungdomsskole",
      "address": "Nordre Boulevard 81",
      "postalCode": "6800",
      "city": "Varde",
      "municipality": "Varde",
      "phone": "7994 6243",
      "email": "ung@varde.dk",
      "lat": 55.62970548,
      "lng": 8.49327331
    },
    {
      "id": "ungdomsskole-575210",
      "name": "Vejen kommunale ungdomsskole",
      "address": "Askovvej 7",
      "postalCode": "6600",
      "city": "Vejen",
      "municipality": "Vejen",
      "phone": "7996 5690",
      "email": "ung@vejen.dk",
      "lat": 55.47254726,
      "lng": 9.13440804
    },
    {
      "id": "ungdomsskole-631211",
      "name": "Vejle Komm. Ungdomsskole",
      "address": "Ved Sønderåen 1",
      "postalCode": "7100",
      "city": "Vejle",
      "municipality": "Vejle",
      "phone": "7681 3900",
      "email": "ungvejle@vejle.dk",
      "lat": 55.70614082,
      "lng": 9.52781259
    },
    {
      "id": "ungdomsskole-820210",
      "name": "Vesthimmerlands Ungdomsskole",
      "address": "Jyllandsgade 37",
      "postalCode": "9600",
      "city": "Aars",
      "municipality": "Vesthimmerlands",
      "phone": "9966 9255",
      "email": "ungdomsskolen@vesthimmerland.dk",
      "lat": 56.80159811,
      "lng": 9.52280039
    },
    {
      "id": "ungdomsskole-791210",
      "name": "Viborg Komm. Ungdomsskole",
      "address": "Reberbanen 13",
      "postalCode": "8800",
      "city": "Viborg",
      "municipality": "Viborg",
      "phone": "8787 1900",
      "email": "ungdomsskolen@viborg.dk",
      "lat": 56.45403256,
      "lng": 9.41101668
    },
    {
      "id": "ungdomsskole-397210",
      "name": "Vordingborg Ungdomsskole",
      "address": "Parkvænget 12",
      "postalCode": "4760",
      "city": "Vordingborg",
      "municipality": "Vordingborg",
      "phone": "5536 3564",
      "email": "ungdomsskolen@vordingborg.dk",
      "lat": 55.0027714,
      "lng": 11.90358629
    },
    {
      "id": "ungdomsskole-443210",
      "name": "Ærø Ungdomsskole",
      "address": "Halvejen 24",
      "postalCode": "5960",
      "city": "Marstal",
      "municipality": "Ærø",
      "phone": "2046 6408",
      "email": "post@viften.net",
      "lat": 54.85648428,
      "lng": 10.50976243
    },
    {
      "id": "ungdomsskole-545210",
      "name": "Aabenraa Ungdomsskole",
      "address": "Dronning Margrethes Vej 13",
      "postalCode": "6200",
      "city": "Aabenraa",
      "municipality": "Aabenraa",
      "phone": "7376 7800",
      "email": "ung@aabenraa.dk",
      "lat": 55.04209392,
      "lng": 9.41363051
    },
    {
      "id": "ungdomsskole-280759",
      "name": "Aalborg Kulturskole",
      "address": "Teglgårds Plads 1",
      "postalCode": "9000",
      "city": "Aalborg",
      "municipality": "Aalborg",
      "phone": "9931 4147",
      "email": "pvc-skole@aalborg.dk",
      "lat": 57.04638402,
      "lng": 9.9329399
    },
    {
      "id": "ungdomsskole-851220",
      "name": "Aalborg Ungdomsskole",
      "address": "Kjellerups Torv 5, st.",
      "postalCode": "9000",
      "city": "Aalborg",
      "municipality": "Aalborg",
      "phone": "9352 0900",
      "email": "ungdomsskolen@aalborg.dk",
      "lat": 57.04636403,
      "lng": 9.93159357
    }
  ],
  "fritidscentre": [],
  "fetchedAt": "2026-04-03T22:27:23.314Z"
}